{
  "poi_data":
  [
    {
      "id":  "0",
      "lat": "22.536804",
      "lng": "113.943005",
      "tag":"university",
      "name": "深圳大学",
      "address": "广东省深圳市南山区深大东路",
      "url":"",
      "description":""
    },
    {
      "id":  "1",
      "lat": "34.613064",
      "lng": "112.424106",
      "tag":"university",
      "name": "河南科技大学",
      "address": "河南省洛阳市洛龙区开元大道263",
      "url":"",
      "description":""
    },
    {
      "id":  "2",
      "lat": "36.619927",
      "lng": "116.979585",
      "tag":"university",
      "name": "济南大学",
      "address": "山东省济南市市中区大学路",
      "url":"",
      "description":""
    },
    {
      "id":  "3",
      "lat": "36.679893",
      "lng": "117.066433",
      "tag":"university",
      "name": "山东大学",
      "address": "山东省济南市历城区书圣路",
      "url":"",
      "description":""
    },
    {
      "id":  "4",
      "lat": "39.997952",
      "lng": "116.315997",
      "tag":"university",
      "name": "北京大学",
      "address": "北京市海淀区求知路",
      "url":"",
      "description":""
    },
    {
      "id":  "5",
      "lat": "36.262577",
      "lng": "117.111941",
      "tag":"spot",
      "name": "泰山",
      "address": "山东省泰安市泰山区",
      "url":"",
      "description":""
    },
    {
      "id":  "6",
      "lat": "22.600005",
      "lng": "114.520081",
      "tag":"spot",
      "name": "大鹏所城",
      "address": "广东省深圳市龙岗区南门西路",
      "url":"",
      "description":""
    },
    {
      "id":  "7",
      "lat": "22.580676",
      "lng": "114.207572",
      "tag":"spot",
      "name": "梧桐山",
      "address": "广东省深圳市罗湖区",
      "url":"",
      "description":""
    },
    {
      "id":  "8",
      "lat": "34.564367",
      "lng": "112.479946",
      "tag":"spot",
      "name": "龙门石窟",
      "address": "河南省洛阳市洛龙区S238",
      "url":"",
      "description":""
    },
    {
      "id":  "9",
      "lat": "34.929908",
      "lng": "112.387096",
      "tag":"spot",
      "name": "黄河小浪底风景区",
      "address": "河南省河南省直辖县级行政单位济源市Y012(张大线)",
      "url":"",
      "description":""
    },
    {
      "id":  "10",
      "lat": "35.043863",
      "lng": "111.982082",
      "tag":"spot",
      "name": "黛眉山",
      "address": "河南省洛阳市新安县S246",
      "url":"",
      "description":""
    },
    {
      "id":  "11",
      "lat": "34.975058",
      "lng": "112.018168",
      "tag":"spot",
      "name": "龙潭大峡谷",
      "address": "河南省洛阳市新安县Y003(石杨线)",
      "url":"",
      "description":""
    },
    {
      "id":  "12",
      "lat": "34.727071",
      "lng": "112.612152",
      "tag":"spot",
      "name": "白马寺",
      "address": "河南省洛阳市洛龙区G310",
      "url":"",
      "description":""
    },
    {
      "id":  "13",
      "lat": "25.735964",
      "lng": "110.114679",
      "tag":"spot",
      "name": "龙脊梯田",
      "address": "广西壮族自治区桂林市龙胜各族自治县Y839",
      "url":"",
      "description":""
    },
    {
      "id":  "14",
      "lat": "24.739377",
      "lng": "110.494787",
      "tag":"spot",
      "name": "阳朔十里画廊",
      "address": "广西壮族自治区桂林市阳朔县G321(十里画廊)",
      "url":"",
      "description":""
    },
    {
      "id":  "15",
      "lat": "31.246449",
      "lng": "121.497436",
      "tag":"spot",
      "name": "上海外滩",
      "address": "上海市黄浦区中山东一路500号",
      "url":"",
      "description":""
    },
    {
      "id":  "16",
      "lat": "31.189927",
      "lng": "121.50074",
      "tag":"spot",
      "name": "世博会中国馆",
      "address": "上海市浦东新区上南路205号",
      "url":"",
      "description":""
    },
    {
      "id":  "17",
      "lat": "30.257789",
      "lng": "120.141853",
      "tag":"spot",
      "name": "杭州西湖",
      "address": "浙江省杭州市西湖区北山路82路",
      "url":"",
      "description":""
    },
    {
      "id":  "18",
      "lat": "39.923547",
      "lng": "116.403541",
      "tag":"spot",
      "name": "故宫",
      "address": "北京市东城区内金水桥",
      "url":"",
      "description":""
    },
    {
      "id":  "19",
      "lat": "40.006481",
      "lng": "116.31582",
      "tag":"spot",
      "name": "圆明园",
      "address": "北京市海淀区清华西路",
      "url":"",
      "description":""
    },
    {
      "id":  "20",
      "lat": "40.36432",
      "lng": "116.015949",
      "tag":"spot",
      "name": "八达岭长城",
      "address": "北京市延庆县S216",
      "url":"",
      "description":""
    }
  ]
}